City,Latitude,Longitude,Max Temp (F),Humidity,Cloud Coverage,Wind Speed,Country,Datetime
namatanai,-3.67,152.43,81.28,79.0,99,3.87,PG,1594621403
severo-kurilsk,50.68,156.12,50.95,84.0,98,10.83,RU,1594621403
cabo san lucas,22.89,-109.91,84,63.0,71,9.13,MX,1594621404
busselton,-33.65,115.33,66,46.0,73,18.41,AU,1594621404
husavik,66.04,-17.34,50,100.0,75,2.24,IS,1594621404
wanaka,-44.7,169.15,34.7,85.0,7,0.67,NZ,1594621175
alofi,-19.06,-169.92,73.4,83.0,51,18.34,NU,1594621405
sitka,57.05,-135.33,55.4,87.0,90,5.82,US,1594621405
bethel,41.37,-73.41,72,88.0,40,3.4,US,1594621406
vaini,-21.2,-175.2,71.6,73.0,75,11.41,TO,1594621406
siyabuswa,-25.11,29.04,46.99,54.0,0,2.66,ZA,1594621406
dutse,11.76,9.34,73.26,79.0,35,6.64,NG,1594621407
chuy,-33.7,-53.46,41.52,72.0,66,9.28,UY,1594621407
auki,-8.77,160.7,82.65,74.0,41,6.31,SB,1594621407
labuan,5.28,115.24,87.8,74.0,20,5.82,MY,1594621361
carnarvon,-24.87,113.63,78.8,47.0,0,11.41,AU,1594621408
hasaki,35.73,140.83,77,78.0,75,6.93,JP,1594621409
mataura,-46.19,168.86,41.23,90.0,86,3.33,NZ,1594621409
srednekolymsk,67.45,153.68,73.63,43.0,50,11.41,RU,1594621410
port lincoln,-34.73,135.87,57.63,67.0,78,4.54,AU,1594621410
port blair,11.67,92.75,84.78,75.0,100,13.91,IN,1594621410
ushuaia,-54.8,-68.3,33.8,86.0,75,21.92,AR,1594621311
udarnyy,54.34,42.86,73.58,65.0,45,5.86,RU,1594621411
gelendzhik,44.57,38.07,80.35,60.0,34,1.34,RU,1594621372
hobart,-42.88,147.33,53.01,66.0,20,5.82,AU,1594621130
rikitea,-23.12,-134.97,70.83,79.0,47,14.58,PF,1594621412
punta arenas,-53.15,-70.92,32,89.0,24,11.41,CL,1594621154
mehamn,71.04,27.85,51.8,71.0,20,4.7,NO,1594621413
augusto correa,-1.02,-46.63,73.38,96.0,22,1.7,BR,1594621413
mount gambier,-37.83,140.77,59,72.0,40,10.29,AU,1594621413
khovu-aksy,51.13,93.6,67.14,74.0,73,4.23,RU,1594621323
airai,-8.93,125.41,70.5,73.0,92,5.39,TL,1594621414
arraial do cabo,-22.97,-42.03,72,75.0,61,6.87,BR,1594621414
udachnyy,66.42,112.4,73.4,33.0,40,6.71,RU,1594621415
east london,-33.02,27.91,68,18.0,0,12.75,ZA,1594621415
piste,20.7,-88.58,73.42,98.0,14,1.92,MX,1594621416
kruisfontein,-34,24.73,53.47,40.0,0,13.53,ZA,1594621416
dingle,11,122.67,86.94,69.0,91,3.96,PH,1594621416
oktyabrskoye,43.06,44.74,80.6,54.0,40,4.47,RU,1594621417
nyurba,63.28,118.33,77.77,60.0,94,2.35,RU,1594621417
butaritari,3.07,172.79,82.76,78.0,72,14.36,KI,1594621417
barrow,71.29,-156.79,37.4,86.0,90,8.05,US,1594621418
ribeira grande,38.52,-28.7,68.61,79.0,10,14.18,PT,1594621418
mar del plata,-38,-57.56,41,60.0,0,17.22,AR,1594621419
ilulissat,69.22,-51.1,44.6,75.0,68,3.4,GL,1594621419
puerto ayora,-0.74,-90.35,66.99,94.0,69,9.06,EC,1594621420
new norfolk,-42.78,147.06,53.01,82.0,0,1.5,AU,1594621290
lagoa,39.05,-27.98,68.13,82.0,0,14.25,PT,1594621420
kungurtug,50.6,97.52,79.95,33.0,89,9.73,RU,1594621421
quatre cocos,-20.21,57.76,75.99,69.0,75,20.8,MU,1594621421
longyearbyen,78.22,15.64,44.6,81.0,75,3.36,SJ,1594621421
wamba,8.93,8.6,71.78,95.0,100,3,NG,1594621422
hermanus,-34.42,19.23,51.01,74.0,92,15.01,ZA,1594621422
hofn,64.25,-15.21,51.62,77.0,100,8.77,IS,1594621423
saskylakh,71.92,114.08,68.95,43.0,91,10.74,RU,1594621423
asau,46.43,26.4,60.01,66.0,59,8.16,RO,1594621423
coquimbo,-29.95,-71.34,48.2,93.0,58,2.24,CL,1594621424
san fernando,15.03,120.69,82.4,74.0,90,4.7,PH,1594621424
port alfred,-33.59,26.89,63.64,29.0,0,13.87,ZA,1594621424
ewa beach,21.32,-158.01,78.8,65.0,90,5.82,US,1594621264
vanimo,-2.67,141.3,84.42,66.0,41,6.24,PG,1594621425
nishihara,26.18,127.76,89.6,74.0,75,10.29,JP,1594621425
hithadhoo,-0.6,73.08,85.12,73.0,13,9.44,MV,1594621426
gulu,2.77,32.3,67.71,92.0,65,3.56,UG,1594621426
richards bay,-28.78,32.04,59.77,51.0,0,16.17,ZA,1594621394
hayden,47.77,-116.79,63,44.0,20,8.05,US,1594621427
nantucket,41.28,-70.1,69.8,83.0,1,9.17,US,1594621253
mahebourg,-20.41,57.7,75.2,69.0,75,20.8,MU,1594621428
manokwari,-0.87,134.08,84,66.0,47,5.26,ID,1594621428
katobu,-4.94,122.53,84.16,67.0,23,10.04,ID,1594621428
baiyin,36.56,104.21,84,53.0,75,2.24,CN,1594621429
sao jose da coroa grande,-8.9,-35.15,74.12,81.0,5,8.16,BR,1594621429
sobolevo,54.43,31.9,51.8,94.0,100,10.58,RU,1594621429
tambopata,-12.73,-69.18,71.31,85.0,16,1.66,PE,1594621430
nikolskoye,59.7,30.79,63,72.0,44,4.47,RU,1594621430
sakakah,29.97,40.21,86,25.0,0,6.93,SA,1594621431
tuktoyaktuk,69.45,-133.04,55.4,66.0,75,11.41,CA,1594621431
isangel,-19.55,169.27,73.85,73.0,9,9.89,VU,1594621431
albany,42.6,-73.97,73.99,94.0,89,1.97,US,1594621396
kapaa,22.08,-159.32,77,78.0,1,14.99,US,1594621432
swan river,52.11,-101.27,64.02,94.0,100,7.81,CA,1594621433
bredasdorp,-34.53,20.04,50,81.0,91,23.04,ZA,1594621433
ambatondrazaka,-17.83,48.42,65.16,69.0,32,4.09,MG,1594621433
vestmannaeyjar,63.44,-20.27,51.28,90.0,100,8.95,IS,1594621434
marienburg,54.04,19.03,62.01,87.0,75,11.41,PL,1594621434
provideniya,64.38,-173.3,48.2,87.0,90,8.95,RU,1594621435
carovigno,40.71,17.66,77,65.0,0,14.99,IT,1594621435
sibolga,1.74,98.78,84.58,61.0,100,2.1,ID,1594621435
dikson,73.51,80.55,40.33,99.0,100,6.53,RU,1594621436
upernavik,72.79,-56.15,40.28,90.0,89,7.67,GL,1594621436
buchanan,5.88,-10.05,75.2,94.0,75,4.7,LR,1594621437
maniitsoq,65.42,-52.9,48.4,66.0,82,5.48,GL,1594621437
constitucion,-35.33,-72.42,51.94,85.0,84,5.21,CL,1594621438
bambous virieux,-20.34,57.76,75.99,69.0,75,20.8,MU,1594621438
manavalakurichi,8.13,77.3,86,74.0,75,4.7,IN,1594621438
nanortalik,60.14,-45.24,44.55,93.0,100,2.46,GL,1594621439
sinnamary,5.38,-52.95,76.59,88.0,27,5.73,GF,1594621439
juneau,58.3,-134.42,57,93.0,90,9.17,US,1594621241
alice springs,-23.7,133.88,60.8,29.0,0,12.75,AU,1594621440
kutum,14.2,24.67,77.54,53.0,41,13.58,SD,1594621440
gat,31.61,34.76,80.01,72.0,1,6.78,IL,1594621440
tuatapere,-46.13,167.68,43.48,81.0,43,3.87,NZ,1594621441
dunedin,-45.87,170.5,44.01,74.0,14,1.99,NZ,1594621372
bluff,-46.6,168.33,48.34,78.0,97,11.05,NZ,1594621441
banjar,-8.19,114.97,84.2,79.0,20,14.99,ID,1594621442
kununurra,-15.77,128.73,82.4,15.0,75,11.41,AU,1594621442
faanui,-16.48,-151.75,78.69,78.0,100,15.61,PF,1594621442
yabrud,33.97,36.66,78.8,54.0,1,17.22,SY,1594621443
qaanaaq,77.48,-69.36,43.23,66.0,97,4.36,GL,1594621444
ahtopol,42.1,27.95,66.2,68.0,40,17.22,BG,1594621444
pangody,65.85,74.49,65.16,71.0,99,8.3,RU,1594621444
marzuq,14.4,46.47,85.41,39.0,66,7.23,YE,1594621445
faya,18.39,42.45,77,27.0,65,4.7,SA,1594621445
souillac,-20.52,57.52,75.2,69.0,75,20.8,MU,1594621445
bogorodskoye,56.55,37.88,58.89,94.0,95,6.22,RU,1594621446
pacific grove,36.62,-121.92,61,77.0,1,5.82,US,1594621446
bairiki,1.33,172.98,86,70.0,40,12.75,KI,1594621446
mogadishu,2.04,45.34,77,69.0,75,12.75,SO,1594621400
torbay,47.67,-52.73,55.99,93.0,90,27.51,CA,1594621447
midland,32,-102.08,89.6,15.0,1,11.41,US,1594621365
castro,-24.79,-50.01,57.72,89.0,28,3.4,BR,1594621257
rawson,-43.3,-65.1,37.56,76.0,0,18.45,AR,1594621448
toumodi,6.56,-5.02,73.4,100.0,96,2.59,CI,1594621448
talnakh,69.49,88.4,62.6,48.0,100,11.18,RU,1594621449
sorong,-0.88,131.25,82.54,77.0,21,5.73,ID,1594621449
cockburn town,21.46,-71.14,83.32,80.0,0,14.63,TC,1594621449
cherskiy,68.75,161.3,61.77,68.0,93,6.04,RU,1594621450
praxedis guerrero,31.37,-106.02,95,17.0,20,6.93,MX,1594621450
touho,-20.78,165.23,73.27,83.0,94,13.85,NC,1594621451
san-pedro,4.75,-6.64,73.44,81.0,69,3.58,CI,1594621451
mae hong son,19.3,97.97,78.8,88.0,40,1.05,TH,1594621451
wattegama,6.8,81.48,91.4,63.0,40,14.99,LK,1594621452
comodoro rivadavia,-45.87,-67.5,39.2,48.0,0,9.17,AR,1594621452
atuona,-9.8,-139.03,79.5,78.0,6,17.27,PF,1594621452
wangqing,43.32,129.76,75.76,57.0,93,9.66,CN,1594621453
batagay-alyta,67.8,130.41,79.86,39.0,55,7.29,RU,1594621453
ayia galini,35.1,24.68,84.99,42.0,0,8.01,GR,1594621454
norman wells,65.28,-126.83,60.8,77.0,75,3.36,CA,1594621454
andros town,24.7,-77.77,82.4,83.0,75,9.17,BS,1594621454
lapeer,43.05,-83.32,60.8,100.0,90,2.46,US,1594621455
taoudenni,22.68,-3.98,93,32.0,5,4.81,ML,1594621455
saldanha,-33.01,17.94,55.4,71.0,77,11.41,ZA,1594621456
bosaso,11.28,49.18,95,39.0,40,26.4,SO,1594621456
manggar,-2.88,108.27,82.47,80.0,68,12.24,ID,1594621456
tecoanapa,16.52,-98.75,77.97,85.0,99,4.94,MX,1594621457
victoria,22.29,114.16,91.99,63.0,7,11.99,HK,1594621257
mandalgovi,45.76,106.27,80.94,28.0,0,3.58,MN,1594621457
soyo,-6.13,12.37,71.6,94.0,20,6.22,AO,1594621458
redlands,34.06,-117.18,84.2,28.0,1,6.93,US,1594621167
san policarpo,12.18,125.51,85.06,75.0,77,6.67,PH,1594621459
shahpur,16.7,76.83,84.34,64.0,98,16.08,IN,1594621459
alexandria,31.22,29.96,78.8,74.0,40,12.75,EG,1594621400
pevek,69.7,170.31,50.83,64.0,75,9.08,RU,1594621460
bilibino,68.05,166.44,62.76,71.0,100,3.56,RU,1594621460
coihaique,-45.58,-72.07,32,95.0,53,3.36,CL,1594621461
lewisville,33.05,-96.99,89.01,62.0,1,9.17,US,1594621217
nome,64.5,-165.41,66,63.0,1,16.11,US,1594621462
bengkulu,-3.8,102.27,81.68,82.0,85,5.1,ID,1594621462
boguchany,58.38,97.45,78.17,37.0,95,4.5,RU,1594621463
berlevag,70.86,29.09,48.2,81.0,75,4.7,NO,1594621463
santa marta,11.24,-74.2,73.99,87.0,13,10.49,CO,1594621463
vila velha,-20.33,-40.29,64.4,88.0,35,5.82,BR,1594621464
san cristobal,7.77,-72.22,64.06,84.0,92,3.2,VE,1594621464
lavrentiya,65.58,-171,45.19,77.0,16,5.53,RU,1594621464
cape town,-33.93,18.42,54,62.0,75,27.51,ZA,1594621465
bandarbeyla,9.49,50.81,87.26,51.0,68,30.29,SO,1594621465
mocajuba,-2.58,-49.51,73.44,93.0,79,1.99,BR,1594621465
vila do maio,15.13,-23.22,73.4,94.0,90,6.93,CV,1594621466
karratha,-20.74,116.85,78.3,23.0,0,16.44,AU,1594621412
oranjestad,12.52,-70.03,82.4,83.0,40,16.11,AW,1594621466
barguzin,53.62,109.62,76.75,57.0,92,2.48,RU,1594621467
padang,-0.95,100.35,78.22,80.0,100,4.85,ID,1594621467
norrtalje,59.76,18.7,61,77.0,1,3,SE,1594621468
liman,48.99,37.8,76.48,67.0,68,7.43,UA,1594621468
pisco,-13.7,-76.22,59,93.0,90,3.36,PE,1594621468
esperance,-33.87,121.9,69.8,39.0,0,16.11,AU,1594621469
gigmoto,13.78,124.39,84.74,67.0,100,1.97,PH,1594621470
bayir,37.27,28.22,86,40.0,0,2.24,TR,1594621470
agadir,30.42,-9.6,68,94.0,90,9.17,MA,1594621470
palmer,42.16,-72.33,73.4,78.0,90,2.33,US,1594621471
rabaul,-4.2,152.17,80.6,82.0,100,11.21,PG,1594621471
pringsewu,-5.36,104.97,88.95,54.0,87,3.02,ID,1594621471
georgetown,5.41,100.34,84.2,74.0,20,6.93,MY,1594621472
pangnirtung,66.15,-65.71,44.53,70.0,14,0.85,CA,1594621472
ban nahin,18.24,104.21,91.87,53.0,28,2.13,LA,1594621472
chokurdakh,70.63,147.92,75.04,37.0,20,9.78,RU,1594621473
vizinga,61.07,50.1,70.95,44.0,23,2.51,RU,1594621474
burnie,-41.07,145.92,55.99,52.0,0,1.99,AU,1594621332
arona,28.1,-16.68,73.99,83.0,0,6.93,ES,1594621474
zhangye,38.93,100.45,91.02,15.0,99,2.17,CN,1594621475
north myrtle beach,33.82,-78.68,82.99,88.0,1,8.05,US,1594621416
touros,-5.2,-35.46,69.8,94.0,20,4.7,BR,1594621475
seoul,37.57,126.98,68,88.0,90,3.36,KR,1594621316
baruun-urt,46.68,113.28,77.27,50.0,100,12.3,MN,1594621476
emerald,-23.53,148.17,69.8,22.0,0,14.99,AU,1594621476
yatou,37.15,122.38,68.27,83.0,100,17.98,CN,1594621477
avarua,-21.21,-159.78,66.2,100.0,100,1.12,CK,1594621408
bontang,0.13,117.5,80.22,78.0,100,3.11,ID,1594621477
fort nelson,58.81,-122.7,57.2,76.0,75,5.82,CA,1594621478
balkanabat,39.51,54.37,94.82,24.0,79,2.48,TM,1594621478
aklavik,68.22,-135.01,57.2,62.0,75,3.36,CA,1594621443
la ronge,55.1,-105.28,53.6,93.0,75,3.36,CA,1594621479
port elizabeth,-33.92,25.57,66.2,25.0,0,17.22,ZA,1594621479
labuhan,-6.88,112.21,85.93,61.0,86,7,ID,1594621480
grimshaw,56.18,-117.6,57,76.0,75,10.29,CA,1594621480
urdoma,61.75,48.54,65.57,52.0,51,3.33,RU,1594621480
port hardy,50.7,-127.42,55.4,93.0,75,2.24,CA,1594621481
flin flon,54.77,-101.86,59.05,96.0,88,6.76,CA,1594621481
kahului,20.89,-156.47,78.8,61.0,20,12.75,US,1594621377
paamiut,61.99,-49.67,44.62,79.0,100,13.35,GL,1594621482
uyuni,-20.46,-66.83,30.47,54.0,0,2.84,BO,1594621482
guarapari,-20.67,-40.5,64.4,88.0,28,5.82,BR,1594621483
kavaratti,10.57,72.64,84.2,79.0,90,5.82,IN,1594621483
college,64.86,-147.8,64.4,55.0,90,8.05,US,1594621483
gravdal,68.12,13.5,55.4,76.0,20,4.7,NO,1594621484
teluk nibung,3,99.82,77.83,87.0,100,4.68,ID,1594621484
saint-philippe,-21.36,55.77,77,53.0,31,6.93,RE,1594621485
cidreira,-30.18,-50.21,53.89,86.0,10,9.37,BR,1594621485
itoman,26.12,127.67,89.6,74.0,75,10.29,JP,1594621486
ponta do sol,32.67,-17.1,66.99,77.0,20,11.41,PT,1594621487
okhotsk,59.38,143.3,66.52,58.0,61,15.03,RU,1594621487
praia da vitoria,38.73,-27.07,68,82.0,75,9.91,PT,1594621488
kamenka,51.32,42.77,79,62.0,82,1.01,RU,1594621488
rio gallegos,-51.62,-69.22,32,92.0,20,18.34,AR,1594621488
srandakan,-7.94,110.25,82.47,72.0,41,15.82,ID,1594621489
varfurile,46.32,22.52,60.53,62.0,0,2.26,RO,1594621489
dubbo,-32.25,148.62,44.6,100.0,90,6.93,AU,1594621353
ogembo,-0.8,34.73,67.06,66.0,59,3.6,KE,1594621490
narsaq,60.92,-46.05,51.8,76.0,100,11.41,GL,1594621490
tacoronte,28.48,-16.41,66.99,55.0,20,1.12,ES,1594621490
hamilton,39.18,-84.53,64.99,93.0,1,3.36,US,1594621491
jamame,0.07,42.75,80.55,71.0,84,15.01,SO,1594621491
shingu,33.73,135.98,78.8,74.0,75,3.36,JP,1594621492
cafarnaum,-11.69,-41.47,61.18,93.0,36,6.73,BR,1594621492
ucluelet,48.93,-125.55,55.99,87.0,0,9.08,CA,1594621492
grand gaube,-20.01,57.66,75.99,66.0,7,13,MU,1594621493
kaitangata,-46.28,169.85,44.01,71.0,47,1.99,NZ,1594621493
saint-augustin,51.23,-58.65,61.41,97.0,100,11.12,CA,1594621494
ketchikan,55.34,-131.65,55.4,87.0,90,3.36,US,1594621494
nuuk,64.18,-51.72,45.75,73.0,30,5.77,GL,1594621343
vardo,70.37,31.11,48.2,81.0,75,8.05,NO,1594621495
leningradskiy,69.38,178.42,40.98,74.0,59,9.22,RU,1594621495
kuytun,54.34,101.5,79.18,46.0,48,7.87,RU,1594621495
dickinson,29.46,-95.05,82.99,83.0,1,3.36,US,1594621449
plettenberg bay,-34.05,23.37,57.97,45.0,2,11.05,ZA,1594621496
kieta,-6.22,155.63,82.54,71.0,99,4.43,PG,1594621496
flinders,-34.58,150.86,61,69.0,0,1.99,AU,1594621497
oga,46.46,10.35,50,87.0,75,2.24,IT,1594621497
manga,11.66,-1.07,74.48,86.0,89,4.56,BF,1594621498
pochutla,15.74,-96.47,78.01,87.0,86,3.78,MX,1594621498
jamestown,42.1,-79.24,62.6,88.0,1,6.93,US,1594621498
bereda,43.27,-7.54,62.01,75.0,26,1.01,ES,1594621499
fortuna,40.6,-124.16,57,93.0,90,8.05,US,1594621499
hilo,19.73,-155.09,78.8,69.0,90,4.99,US,1594621265
samana,19.21,-69.34,77.56,89.0,27,2.48,DO,1594621281
mercedes,-34.65,-59.43,45,73.0,81,1.99,AR,1594621500
pantai remis,4.46,100.63,86,70.0,40,4.7,MY,1594621501
churapcha,62,132.43,92.88,34.0,15,4.85,RU,1594621501
bathsheba,13.22,-59.52,82.4,74.0,40,19.46,BB,1594621501
sao filipe,14.9,-24.5,75.16,80.0,99,4.45,CV,1594621502
warwick,41.7,-71.42,73.99,78.0,1,3.36,US,1594621502
russell,32.35,-85.2,73.4,100.0,75,5.82,US,1594621503
xining,36.62,101.77,78.67,34.0,97,15.86,CN,1594621423
suntar,62.14,117.63,78.37,48.0,86,4.9,RU,1594621503
kavieng,-2.57,150.8,83.73,68.0,83,2.08,PG,1594621504
frankfort,-27.27,28.48,37.33,67.0,0,3.47,ZA,1594621505
yellowknife,62.46,-114.35,64.4,59.0,75,9.17,CA,1594621412
camana,-16.62,-72.71,58.59,73.0,1,7.36,PE,1594621506
sao joao da barra,-21.64,-41.05,69.13,71.0,38,8.86,BR,1594621507
altay,47.87,88.12,73.13,33.0,80,9.82,CN,1594621508
thompson,55.74,-97.86,64.4,77.0,75,3.36,CA,1594621508
taos,36.41,-105.57,73.4,27.0,20,6.93,US,1594621509
ulladulla,-35.35,150.47,57.99,71.0,75,10.29,AU,1594621470
los llanos de aridane,28.66,-17.92,71.01,77.0,75,10.29,ES,1594621510
gimbi,9.17,35.83,57.49,100.0,100,0.78,ET,1594621510
panguna,-6.32,155.48,74.82,87.0,100,2.82,PG,1594621511
dingtao,35.07,115.56,84.63,53.0,41,10.69,CN,1594621511
albanel,48.88,-72.45,64.4,88.0,75,9.17,CA,1594621510
umm lajj,25.02,37.27,86.77,63.0,22,6.44,SA,1594621512
lebu,-37.62,-73.65,47.95,90.0,100,6.11,CL,1594621513
duluth,46.78,-92.11,66.2,77.0,1,1.88,US,1594621514
pimentel,-6.84,-79.93,61.23,91.0,1,8.21,PE,1594621514
amalapuram,16.58,82.02,84.2,79.0,75,6.93,IN,1594621515
nalut,30.33,10.85,77.29,48.0,0,11.07,LY,1594621515
kodiak,57.79,-152.41,51.8,87.0,90,5.82,US,1594621515
sola,-13.88,167.55,79.97,82.0,67,26.35,VU,1594621516
kattivakkam,13.22,80.32,86,79.0,75,8.05,IN,1594621516
jalu,29.03,21.55,76.19,50.0,0,9.26,LY,1594621517
rio verde de mato grosso,-18.92,-54.84,72.1,58.0,12,3.33,BR,1594621517
ostrovnoy,68.05,39.51,47.86,86.0,100,7.2,RU,1594621517
takhli,15.26,100.34,95,55.0,100,1.01,TH,1594621518
cairns,-16.92,145.77,77,47.0,39,10.29,AU,1594621349
akureyri,65.68,-18.09,50,100.0,75,2.24,IS,1594621519
teofilo otoni,-17.86,-41.51,60.48,91.0,18,2.21,BR,1594621519
seryshevo,51.09,128.38,89.22,46.0,0,5.93,RU,1594621520
iisalmi,63.56,27.19,57.2,82.0,76,8.05,FI,1594621520
palana,59.12,159.97,56.52,87.0,66,5.5,RU,1594621521
gewane,10.17,40.65,84.52,45.0,37,19.89,ET,1594621521
adamovka,51.52,59.94,84.74,47.0,0,6.46,RU,1594621521
mezhdurechensk,53.69,88.06,69.93,63.0,100,1.83,RU,1594621522
port-cartier,50.03,-66.87,62.01,93.0,90,17.22,CA,1594621522
toora-khem,52.47,96.11,82,39.0,89,3.89,RU,1594621522
stege,54.99,12.28,61,80.0,46,13.82,DK,1594621523
fairbanks,64.84,-147.72,64.4,55.0,75,11.41,US,1594621232
usinsk,65.99,57.53,53.78,68.0,94,15.79,RU,1594621446
tasiilaq,65.61,-37.64,37.4,93.0,70,6.46,GL,1594621524
novyy urengoy,66.08,76.63,59.38,87.0,100,8.72,RU,1594621446
barra do garcas,-15.89,-52.26,68.7,74.0,34,1.77,BR,1594621340
barkhan,29.9,69.53,89.87,39.0,4,5.21,PK,1594621525
codrington,-38.27,141.97,54.99,79.0,2,11.52,AU,1594621526
shirvan,39.95,48.9,87.78,43.0,0,9.89,AZ,1594621526
payson,40.04,-111.73,75.2,50.0,1,6.93,US,1594621526
urusha,54.05,122.9,95.92,25.0,72,3.11,RU,1594621527
egvekinot,66.32,-179.17,54.99,55.0,67,4.72,RU,1594621528
lugovoy,42.95,72.76,85.69,22.0,0,9.33,KZ,1594621528
grindavik,63.84,-22.43,48.2,87.0,75,1.12,IS,1594621529
moulins,46.5,3.33,57.2,67.0,51,1.97,FR,1594621529
arica,-18.48,-70.3,51.82,83.0,16,1.83,CL,1594621315
zhigansk,66.77,123.37,63.68,80.0,100,14.76,RU,1594621530
teguldet,57.31,88.17,80.33,41.0,12,4.61,RU,1594621530
ifanadiana,-21.3,47.63,67.51,78.0,4,1.36,MG,1594621531
kloulklubed,7.04,134.26,80.6,83.0,90,3.36,PW,1594621531
miri,4.41,114.01,87.8,74.0,40,5.82,MY,1594621268
champerico,14.3,-91.92,78.94,83.0,20,5.84,GT,1594621532
sambava,-14.27,50.17,73.15,75.0,15,10.56,MG,1594621532
menongue,-14.66,17.69,48.69,48.0,0,4.14,AO,1594621533
katsuura,35.13,140.3,73.99,87.0,100,3,JP,1594621533
bloemfontein,-29.12,26.21,32,68.0,0,3.36,ZA,1594621534
forio,40.73,13.86,75.99,69.0,46,5.99,IT,1594621534
syedove,47.08,38.16,75,100.0,61,13,UA,1594621534
margate,51.38,1.39,64.99,57.0,76,1.99,GB,1594621535
inhambane,-23.86,35.38,62.6,67.0,75,6.93,MZ,1594621535
guerrero negro,27.98,-114.06,70.7,71.0,3,13.85,MX,1594621536
general pico,-35.66,-63.76,45.34,56.0,97,9.86,AR,1594621502
wawa,9.9,4.42,72.93,93.0,100,6.42,NG,1594621536
mwanza,-2.52,32.9,68,68.0,20,5.82,TZ,1594621537
palmeira das missoes,-27.9,-53.31,55.06,98.0,62,0.27,BR,1594621537
kalabo,-14.97,22.68,52.14,43.0,0,4.27,ZM,1594621538
kaeo,-35.1,173.78,55.99,3.0,75,3,NZ,1594621538
poum,-20.23,164.02,73.42,76.0,89,7.74,NC,1594621539
chimbote,-9.09,-78.58,60.28,90.0,5,5.77,PE,1594621313
verkhnyaya toyma,62.23,45,60.55,66.0,90,4.09,RU,1594621539
marsa matruh,31.35,27.25,73.4,78.0,40,8.05,EG,1594621540
werda,-25.27,23.28,40.75,55.0,0,9.66,BW,1594621540
zaterechnyy,44.79,45.21,92.84,30.0,37,6.82,RU,1594621541
wuwei,37.93,102.64,84,43.0,77,12.66,CN,1594621541
naze,28.37,129.48,89.6,79.0,75,10.29,JP,1594621541
hambantota,6.12,81.12,91.4,63.0,40,14.99,LK,1594621542
macamic,48.75,-79,55.4,100.0,90,5.82,CA,1594621542
tiksi,71.69,128.87,64.6,51.0,57,5.32,RU,1594621543
ulagan,50.63,87.96,60.8,74.0,100,1.63,RU,1594621543
adrar,20.5,-10.07,89.89,35.0,58,11.79,MR,1594621543
cayenne,4.93,-52.33,73.4,100.0,90,4.85,GF,1594621544
mao,39.89,4.27,75.2,64.0,89,17.22,ES,1594621544
beidao,34.57,105.89,86.79,39.0,100,5.41,CN,1594621544
yendi,9.44,-0.01,72.59,94.0,99,6.11,GH,1594621545
clyde river,70.47,-68.59,35.6,100.0,90,3.36,CA,1594621545
newport,51.59,-3,62.01,80.0,57,1.99,GB,1594621546
dunda,-8.12,34.25,67.26,46.0,6,6.55,TZ,1594621546
honningsvag,70.98,25.97,46.4,87.0,75,5.82,NO,1594621547
hualmay,-11.1,-77.61,60.22,86.0,4,6.67,PE,1594621547
tirumullaivasal,11.23,79.83,90.16,57.0,100,5.35,IN,1594621548
subang,-7.13,108.53,82.98,64.0,60,4.83,ID,1594621548
mount isa,-20.73,139.5,69.8,14.0,0,13.87,AU,1594621549
oudtshoorn,-33.59,22.2,59,54.0,20,11.41,ZA,1594621549
wilmington,34.23,-77.94,80.01,100.0,1,3.36,US,1594621392
gardiner,44.23,-69.78,69.8,83.0,1,2.42,US,1594621550
rio pomba,-21.27,-43.18,57,99.0,69,3.06,BR,1594621550
pedernales,18.04,-71.74,80.8,71.0,64,2.1,DO,1594621551
verkhnevilyuysk,63.45,120.32,75.74,64.0,96,1.03,RU,1594621551
ust-ishim,57.69,71.17,80.8,45.0,34,9.78,RU,1594621267
nan,18.83,100.67,82.4,69.0,20,3.36,TH,1594621552
pa sang,18.53,98.94,82.4,74.0,75,3.36,TH,1594621552
whitianga,-36.83,175.7,57.99,84.0,41,1.01,NZ,1594621553
agadez,19.75,10.25,86.7,30.0,4,4.38,NE,1594621553
batemans bay,-35.72,150.18,51.01,92.0,98,1.99,AU,1594621553
san patricio,19.22,-104.7,79.84,81.0,100,3.02,MX,1594621554
san juan,-31.54,-68.54,45.16,61.0,86,7.27,AR,1594621412
ahipara,-35.17,173.17,57.79,87.0,57,6.17,NZ,1594621554
lorengau,-2.02,147.27,85.69,60.0,89,4.25,PG,1594621555
carberry,49.87,-99.36,69.8,77.0,90,5.82,CA,1594621276
lambarene,-0.7,10.24,71.91,90.0,95,2.86,GA,1594621556
kerema,-7.96,145.78,81.63,79.0,31,7.67,PG,1594621556
labrea,-7.26,-64.8,73.18,89.0,100,2.24,BR,1594621556
houston,29.76,-95.36,84,78.0,1,10.29,US,1594621510
klaksvik,62.23,-6.59,51.8,93.0,100,10.29,FO,1594621557
ancud,-41.87,-73.82,34,100.0,44,3.36,CL,1594621558
kiunga,-6.12,141.29,79.79,93.0,89,2.48,PG,1594621558
tibati,6.47,12.63,66.22,96.0,92,1.12,CM,1594621558
jimo,36.39,120.46,78.8,69.0,40,11.18,CN,1594621559
kudahuvadhoo,2.67,72.89,84.15,68.0,30,4.7,MV,1594621559
salta,-24.79,-65.41,41,86.0,4,0.78,AR,1594621466
vila franca do campo,37.72,-25.43,68,72.0,75,5.82,PT,1594621560
gannan,47.91,123.5,92.68,30.0,11,1.72,CN,1594621560
kenai,60.55,-151.26,55.4,76.0,90,11.41,US,1594621329
talgram,27.05,79.65,100.42,33.0,19,9.89,IN,1594621561
salalah,17.02,54.09,82.4,94.0,90,6.93,OM,1594621561
karaton,-6.34,106.1,87.8,66.0,40,11.41,ID,1594621561
middletown,39.52,-84.4,66.2,100.0,1,3.87,US,1594621473
ugoofaaru,5.67,73,83.5,69.0,51,2.82,MV,1594621498
yar-sale,66.83,70.83,55.71,83.0,100,12.5,RU,1594621351
mokhotlong,-29.29,29.07,34.56,66.0,2,1.3,LS,1594621563
lovozero,68,35.01,48.04,87.0,100,3.38,RU,1594621563
port keats,-14.25,129.55,85.91,21.0,94,12.41,AU,1594621563
svetlyy,54.67,20.13,62.6,77.0,40,13.42,RU,1594621564
barra patuca,15.8,-84.28,79.57,85.0,8,9.19,HN,1594621565
fort-shevchenko,44.51,50.26,87.91,44.0,0,10.07,KZ,1594621565
vrangel,42.73,133.08,64.29,81.0,29,7.25,RU,1594621566
toppenish,46.38,-120.31,64.99,42.0,1,17.22,US,1594621517
vaitape,-16.52,-151.75,79.54,76.0,100,15.57,PF,1594621567
ponta delgada,37.73,-25.67,68,72.0,75,5.82,PT,1594621567
amapa,1,-52,68.74,98.0,27,0.94,BR,1594621567
wanning,18.8,110.4,89.28,66.0,25,12.21,CN,1594621568
timra,62.49,17.33,55.99,71.0,17,9.17,SE,1594621568
korla,41.76,86.15,87.58,13.0,29,6.26,CN,1594621569
leua,48.22,18.61,53.6,76.0,0,3.33,SK,1594621569
pag,44.45,15.06,71.6,35.0,0,6.93,HR,1594621569
bulungu,-4.55,18.6,74.61,80.0,53,5.82,CD,1594621570
sarkand,45.41,79.92,76.53,30.0,0,6.91,KZ,1594621570
hai duong,20.93,106.32,95,70.0,20,12.75,VN,1594621347
halifax,44.65,-63.57,62.01,82.0,16,11.1,CA,1594621382
shchigry,51.88,36.9,73.4,60.0,20,4.47,RU,1594621571
iisaku,59.1,27.31,57.92,79.0,48,4.34,EE,1594621572
maneadero,31.72,-116.57,70,90.0,19,3,MX,1594621572
concarneau,47.88,-3.92,53.6,81.0,2,5.82,FR,1594621291
zarubino,42.63,131.09,66.07,82.0,87,8.12,RU,1594621573
semnan,35.57,53.4,86.79,21.0,1,7.25,IR,1594621573
charyshskoye,51.4,83.56,66.38,72.0,70,1.86,RU,1594621574
huilong,31.81,121.66,82.99,84.0,100,13.2,CN,1594621480
yuyao,30.05,121.15,98.6,50.0,20,6.71,CN,1594621574
kimbe,-5.55,150.14,83.53,79.0,100,1.21,PG,1594621575
coahuayana,18.73,-103.68,77.81,83.0,98,3.11,MX,1594621575
zverinogolovskoye,54.46,64.85,78.22,55.0,0,4.34,RU,1594621576
riyadh,24.69,46.72,100.4,15.0,24,6.93,SA,1594621339
atmakur,15.88,78.58,86.97,63.0,100,11.83,IN,1594621577
la libertad,-2.23,-80.9,68.58,90.0,77,14.94,EC,1594621578
joshimath,30.57,79.57,77.74,39.0,20,6.67,IN,1594621578
louiseville,46.26,-72.94,66.99,93.0,1,5.28,CA,1594621578
cacapava do sul,-30.51,-53.49,39.6,85.0,13,5.12,BR,1594621579
kingaroy,-26.53,151.83,60.8,38.0,40,14.99,AU,1594621579
komsomolskiy,40.43,71.72,91.4,22.0,56,9.17,UZ,1594621580
tingo maria,-9.29,-76.01,66.29,82.0,5,1.92,PE,1594621580
luderitz,-26.65,15.16,55.4,82.0,12,6.93,NA,1594621580
weligama,5.97,80.42,85.17,70.0,100,11.21,LK,1594621581
sao paulo de olivenca,-3.38,-68.87,71.8,94.0,78,1.77,BR,1594621581
erzin,36.96,36.2,81,83.0,85,7,TR,1594621581
hobyo,5.35,48.53,82.81,65.0,92,24.94,SO,1594621582
muli,2.92,73.57,84.34,66.0,25,3.67,MV,1594621582
khatanga,71.97,102.5,66.85,46.0,71,14.5,RU,1594621582
yichang,30.71,111.28,75,73.0,100,1.77,CN,1594621583
telde,27.99,-15.42,69.8,83.0,20,23.04,ES,1594621583
shelburne,44.08,-80.2,61,100.0,90,7.2,CA,1594621584
pitimbu,-7.47,-34.81,74.41,76.0,37,10.56,BR,1594621584
anshun,26.25,105.93,73.38,86.0,100,10.65,CN,1594621584
namibe,-15.2,12.15,61.65,79.0,0,6.38,AO,1594621585
seymchan,62.88,152.43,82.67,30.0,78,1.99,RU,1594621585
iberia,29.95,-91.75,82.4,100.0,1,3.36,US,1594621586
bull savanna,17.89,-77.59,75.06,86.0,54,3.36,JM,1594621586
ferme-neuve,46.7,-75.45,56.16,95.0,81,2.51,CA,1594621586
caborca,30.58,-111.1,91.76,31.0,2,5.84,MX,1594621587
saint george,37.1,-113.58,96.8,16.0,1,4.7,US,1594621587
iqaluit,63.75,-68.51,50,81.0,75,14.99,CA,1594621588
dwarka,22.24,68.97,86.2,75.0,29,14.9,IN,1594621588
derzhavinsk,51.1,66.32,79.47,41.0,0,11.79,KZ,1594621588
xai-xai,-25.05,33.64,57.6,78.0,0,6.82,MZ,1594621589
anadyr,64.75,177.48,51.8,93.0,20,11.18,RU,1594621590
havelock,34.88,-76.9,82.99,78.0,1,3.36,US,1594621590
qaqortoq,60.72,-46.03,51.8,76.0,100,11.41,GL,1594621591
kodinsk,58.69,99.18,79.39,35.0,66,4.54,RU,1594621591
amahai,-3.33,128.92,79.83,84.0,98,11.88,ID,1594621591
karaidel,55.83,56.91,79.79,48.0,0,3.33,RU,1594621592
inuvik,68.35,-133.72,57.2,62.0,75,3.36,CA,1594621452
vawkavysk,53.16,24.45,55.4,82.0,75,8.95,BY,1594621592
birao,10.28,22.79,72.19,90.0,100,8.57,CF,1594621593
lodwar,3.12,35.6,81.7,50.0,81,8.08,KE,1594621593
wencheng,33.06,113.8,83.14,57.0,80,4.25,CN,1594621594
ostersund,63.18,14.64,46.4,81.0,11,12.75,SE,1594621594
meulaboh,4.14,96.13,85.86,67.0,100,8.46,ID,1594621595
kysyl-syr,63.9,122.76,76.03,55.0,84,7.81,RU,1594621595
herat,34.5,62,93.2,21.0,0,8.05,AF,1594621596
cobija,-11.03,-68.77,70.56,78.0,0,2.19,BO,1594621596
dubti,11.74,41.09,92.57,33.0,6,14.38,ET,1594621596
soure,-0.72,-48.52,78.73,82.0,58,7.94,BR,1594621597
nouadhibou,20.93,-17.03,71.6,83.0,10,6.93,MR,1594621597
portland,45.52,-122.68,63,63.0,20,9.17,US,1594621299
mago,53.25,140.18,71.26,62.0,95,2.84,RU,1594621598
san quintin,30.48,-115.95,71.06,71.0,0,6.2,MX,1594621599
poltavka,54.37,71.76,77.4,48.0,4,7.54,RU,1594621599
matagami,49.75,-77.63,51.8,100.0,90,8.05,CA,1594621600
okahandja,-21.98,16.92,46.4,33.0,0,5.82,NA,1594621600
aguimes,27.91,-15.45,69.8,83.0,20,23.04,ES,1594621601
north bend,43.41,-124.22,57.2,87.0,1,18.34,US,1594621601
trofors,65.53,13.41,48.2,87.0,75,1.12,NO,1594621602
sines,37.96,-8.87,60.01,89.0,0,1.01,PT,1594621602
powder springs,33.86,-84.68,71.6,83.0,1,2.55,US,1594621602
shepetivka,50.19,27.06,56.48,82.0,6,12.95,UA,1594621603
prince rupert,54.32,-130.32,53.6,93.0,75,4.7,CA,1594621604
tautira,-17.73,-149.15,77,69.0,75,3.36,PF,1594621604
alamos,27.02,-108.93,89.01,64.0,3,5.99,MX,1594621604
sur,22.57,59.53,95.11,47.0,33,10.25,OM,1594621605
belmopan,17.25,-88.77,77,86.0,9,2.08,BZ,1594621605
lompoc,34.64,-120.46,57.2,87.0,0,5.82,US,1594621444
hangu,39.25,117.79,84.2,54.0,97,4.47,CN,1594621606
kemin,42.78,75.69,78.84,26.0,0,6.24,KG,1594621606
bintulu,3.17,113.03,89.6,70.0,20,8.05,MY,1594621533
ambon,-3.7,128.18,78.01,15.0,98,17.4,ID,1594621607
naisud,11.81,122.19,86.56,66.0,98,5.32,PH,1594621608
lasa,46.62,10.7,48.2,93.0,5,3.36,IT,1594621608
sherlovaya gora,50.57,116.25,85.87,34.0,97,13.04,RU,1594621609
dharchula,29.85,80.53,82.36,52.0,62,5.75,IN,1594621609
hervey bay,-25.3,152.85,70,46.0,62,5.99,AU,1594621610
vao,-22.67,167.48,72.79,76.0,99,17.96,NC,1594621610
kampene,-3.6,26.67,73.17,81.0,63,1.92,CD,1594621611
porto novo,6.5,2.6,77,88.0,20,9.17,BJ,1594621611
kapoeta,4.77,33.59,76.17,71.0,27,2.35,SS,1594621612
kingsport,36.55,-82.56,69.01,88.0,40,1.45,US,1594621445
ovsyanka,55.96,92.55,75.2,50.0,40,8.95,RU,1594621612
opuwo,-18.06,13.84,51.69,43.0,0,6.53,NA,1594621613
campbell river,50.02,-125.24,59,67.0,20,4.7,CA,1594621613
zaysan,47.47,84.87,75.65,34.0,31,8.66,KZ,1594621614
raudeberg,61.99,5.14,53.6,87.0,75,10.29,NO,1594621614
balabac,7.99,117.06,85.82,69.0,97,5.93,PH,1594621615
broome,42.25,-75.83,64.99,100.0,20,5.82,US,1594621615
constantine,36.37,6.61,69.8,60.0,75,3.36,DZ,1594621616
de-kastri,51.47,140.78,67.23,63.0,67,5.08,RU,1594621617
mugan,35.94,101.38,71.64,48.0,100,10.36,CN,1594621617
kimberley,-28.73,24.76,44.6,36.0,0,9.17,ZA,1594621618
hirado,33.36,129.55,84.2,74.0,75,16.11,JP,1594621445
enshi,30.3,109.48,74.35,87.0,100,1.41,CN,1594621618
severo-yeniseyskiy,60.37,93.04,72.23,45.0,24,7.2,RU,1594621619
bowen,-20.02,148.23,77,44.0,84,8.05,AU,1594621619
severomuysk,56.15,113.43,68.65,56.0,34,6.55,RU,1594621619
peniche,39.36,-9.38,64.99,90.0,0,9.24,PT,1594621620
kulhudhuffushi,6.62,73.07,83.89,67.0,83,4.12,MV,1594621620
rognan,67.1,15.39,54,90.0,83,5.23,NO,1594621621
nagahama,35.38,136.27,69.01,100.0,75,2.24,JP,1594621622
lujiang,31.26,117.28,77,94.0,90,6.71,CN,1594621597
tigzirt,36.89,4.12,76.1,68.0,25,12.03,DZ,1594621623
camacha,33.08,-16.33,68,72.0,40,12.75,PT,1594621623
datong,40.09,113.29,76.8,50.0,53,4.27,CN,1594621624
ullapool,57.9,-5.16,55,91.0,88,5.99,GB,1594621624
yulara,-25.24,130.99,66.2,25.0,0,14.99,AU,1594621624
ust-tsilma,65.44,52.15,55.45,64.0,99,4.83,RU,1594621625
magadan,59.57,150.8,63.52,67.0,57,8.19,RU,1594621625
teshie,5.58,-0.11,75.2,94.0,75,9.17,GH,1594621625
dovers,12.88,-61.18,82.09,80.0,0,16.73,VC,1594621626
xuddur,4.12,43.89,77.38,64.0,45,21.92,SO,1594621626
dinard,48.63,-2.06,60.8,67.0,3,6.93,FR,1594621627
itarema,-2.92,-39.92,75.65,81.0,19,12.41,BR,1594621627
ngunguru,-35.62,174.5,55.99,3.0,21,3,NZ,1594621628
ust-kuyga,70.02,135.6,80.22,43.0,90,5.14,RU,1594621628
ciudad real,39,-4,73,76.0,0,2.53,ES,1594621629
waddan,29.16,16.14,72.16,57.0,0,4.23,LY,1594621629
todos santos,23.45,-110.22,75.99,85.0,83,2.55,MX,1594621630
quelimane,-17.88,36.89,66.2,82.0,40,4.7,MZ,1594621630
bardsir,29.92,56.57,87.8,19.0,40,4.7,IR,1594621630
eyemouth,55.87,-2.09,57.99,86.0,92,4,GB,1594621631
corumba,-19.01,-57.65,72.61,72.0,13,1.72,BR,1594621631
yangjiang,21.85,111.97,89.4,66.0,28,8.37,CN,1594621632
hit,33.64,42.83,96.42,24.0,0,15.97,IQ,1594621632
santa cruz,-17.8,-63.17,71.6,88.0,40,4.7,BO,1594621468
